[
    {
      "name":"玉溪辉煌物流运输有限公司",
      "lat":24.31914790098968,
      "lon":102.522644,
      "level":3
    },
    {
      "name":"峨山赢德物流有限公司",
      "lat":24.178857066198315,
      "lon":102.40912,
      "level":5
    },
    {
      "name":"玉溪广福物流有限公司",
      "lat":24.3935605848226,
      "lon":102.53372799999997,
      "level":6
    },
    {
      "name":"玉溪辉盛物流有限公司",
      "lat":24.38468766973737,
      "lon":102.509071,
      "level":5
    },
    {
      "name":"通海兴鑫物流运输有限公司",
      "lat":24.116817421709655,
      "lon":102.76525,
      "level":5
    },
    {
      "name":"玉溪兴达物流有限公司",
      "lat":24.69793962303548,
      "lon":102.17408299999997,
      "level":5
    },
    {
      "name":"太和县鑫强运输有限公司",
      "lat":33.184948742775944,
      "lon":115.625427,
      "level":5
    },
    {
      "name":"太和县辉煌运输有限公司",
      "lat":32.90092087476664,
      "lon":115.802231,
      "level":5
    },
    {
      "name":"建水曲江周全物流有限公司",
      "lat":23.968993097421304,
      "lon":102.82598999999998,
      "level":5
    },
    {
      "name":"红塔区捷顺物流有限公司",
      "lat":24.35280359331002,
      "lon":102.540837,
      "level":5
    },
    {
      "name":"红塔区顺程物流有限公司",
      "lat":24.325918358050032,
      "lon":102.52404877534103,
      "level":5
    },
    {
      "name":"红塔区远程物流有限公司",
      "lat":24.321198330426853,
      "lon":102.521551,
      "level":5
    },
    {
      "name":"红塔区北城年春花货运部",
      "lat":24.428415452149537,
      "lon":102.549377,
      "level":4
    },
    {
      "name":"红塔区春和赵伟货运部",
      "lat":24.40053568087779,
      "lon":102.53069,
      "level":3
    },
    {
      "name":"红塔区北城邱秀文货运部",
      "lat":24.54388829921725,
      "lon":102.557198,
      "level":6
    },
    {
      "name":"红塔区北城唐丽华货运部",
      "lat":24.54388829921725,
      "lon":102.557198,
      "level":8
    },
    {
      "name":"红塔区北城杨玉坤货运部",
      "lat":24.54388829921725,
      "lon":102.557198,
      "level":19
    },
    {
      "name":"北城何会芬货运部",
      "lat":24.427477684528196,
      "lon":102.5491409656067,
      "level":10
    },
    {
      "name":"红塔区春和施有清货运部",
      "lat":24.40564791561818,
      "lon":102.43567263033296,
      "level":10
    },
    {
      "name":"红塔张辉运输服务部",
      "lat":24.28731046213909,
      "lon":102.36123700000003,
      "level":6
    }
  ]